[
  {
    "id": 1,
    "name": "الشمال",
    "coordinates": {
      "lat": "31.529191502894275",
      "lng": "34.47942428475519"
    }
  },
  {
    "id": 2,
    "name": "غزة",
    "coordinates": {
      "lat": "31.50310344657815",
      "lng": "34.46672153290604"
    }
  },
  {
    "id": 3,
    "name": "الزهرة",
    "coordinates": {
      "lat": "31.471837415654495",
      "lng": "34.398588603757375"
    }
  },
  {
    "id": 4,
    "name": "نصيرات",
    "coordinates": {
      "lat": "31.450166634200745",
      "lng": "34.4008981901606"
    }
  },
  {
    "id": 5,
    "name": "البريج",
    "coordinates": {
      "lat": "31.438836730881754",
      "lng": "34.40205298558822"
    }
  },
  {
    "id": 6,
    "name": "الزوايدة",
    "coordinates": {
      "lat": "31.43070791291395",
      "lng": "34.37347179875469"
    }
  },
  {
    "id": 7,
    "name": "المغازي",
    "coordinates": {
      "lat": "31.4230711084926",
      "lng": "34.383576258746345"
    }
  },
  {
    "id": 8,
    "name": "خانيونس",
    "coordinates": {
      "lat": "31.345929189595502",
      "lng": "34.30938064505352"
    }
  },
  {
    "id": 9,
    "name": "رفح",
    "coordinates": {
      "lat": "31.297590825955062",
      "lng": "34.246732993105276"
    }
  }
]
