[
  {
    "id": 1,
    "name": "الشمال",
    "coordinates": {
      "lat": 31.53474157089668,
      "lng": 34.496956478695665
    }
  },
  {
    "id": 2,
    "name": "غزة",
    "coordinates": {
      "lat": 31.512646000696368,
      "lng": 34.457782320381796
    }
  },
  {
    "id": 3,
    "name": "الزهراء",
    "coordinates": {
      "lat": 31.473856375648705,
      "lng": 34.401168216128575
    }
  },
  {
    "id": 4,
    "name": "نصيرات",
    "coordinates": {
      "lat": 31.448817551234686,
      "lng": 34.39395069759782
    }
  },
  {
    "id": 5,
    "name": "البريج",
    "coordinates": {
      "lat": 31.442520185300125,
      "lng": 34.40288680301738
    }
  },
  {
    "id": 6,
    "name": "الزوايدة",
    "coordinates": {
      "lat": 31.42801998981875,
      "lng": 34.3649462995858
    }
  },
  {
    "id": 7,
    "name": "المغازي",
    "coordinates": {
      "lat": 31.42303960728665,
      "lng": 34.38657062439451
    }
  },
  {
    "id": 8,
    "name": "دير البلح",
    "coordinates": {
      "lat": 31.418351946808,
      "lng": 34.3501826622758
    }
  },
  {
    "id": 9,
    "name": "خانيونس",
    "coordinates": {
      "lat": 31.3458098689883,
      "lng": 34.302978363846606
    }
  },
  {
    "id": 10,
    "name": "رفح",
    "coordinates": {
      "lat": 31.276439572981943,
      "lng": 34.25630453094563
    }
  }
]
